{"type":"FeatureCollection", "features": [
{"type":"Feature","geometry":{"type":"Point","coordinates":[-89.25168828499994,45.927545156000065]},"properties":{"CERTIFIED_":25,"CMS_PROVID":"201 Hospital Rd","CMS_PROV_1":"01","CMS_PROV_2":"11","CMS_PROV_3":"Critical Access Hospitals","CMS_PROV_4":"Eagle River","CMS_PROV_5":"521300","CMS_PROV_6":"54521-8835","CMS_PROV_7":"Hospital","FACILITY_N":"ASPIRUS EAGLE RIVER HOSPITAL","FAX_NUM":"715-361-4877","PHONE_NUM":"715-479-7411","CMS_PROV_8":"WI","TOT_BED_CT":25}},
{"type":"Feature","geometry":{"type":"Point","coordinates":[-91.21265255399999,44.57810480400008]},"properties":{"CERTIFIED_":18,"CMS_PROVID":"13025 8th St","CMS_PROV_1":"01","CMS_PROV_2":"11","CMS_PROV_3":"Critical Access Hospitals","CMS_PROV_4":"Osseo","CMS_PROV_5":"521302","CMS_PROV_6":"54758-7634","CMS_PROV_7":"Hospital","FACILITY_N":"MAYO CLINIC HEALTH SYSTEM-OAKRIDGE","FAX_NUM":"715-597-6250","PHONE_NUM":"715-597-3121","CMS_PROV_8":"WI","TOT_BED_CT":18}},
{"type":"Feature","geometry":{"type":"Point","coordinates":[-89.24579136499995,44.18313858800008]},"properties":{"CERTIFIED_":25,"CMS_PROVID":"601 Grove Ave","CMS_PROV_1":"01","CMS_PROV_2":"11","CMS_PROV_3":"Critical Access Hospitals","CMS_PROV_4":"Wild Rose","CMS_PROV_5":"521303","CMS_PROV_6":"54984-6903","CMS_PROV_7":"Hospital","FACILITY_N":"THEDACARE MEDICAL CENTER - WILD ROSE INC","FAX_NUM":"920-622-6020","PHONE_NUM":"920-622-3257","CMS_PROV_8":"WI","TOT_BED_CT":25}},
{"type":"Feature","geometry":{"type":"Point","coordinates":[-90.34612813499996,43.64888509000008]},"properties":{"CERTIFIED_":25,"CMS_PROVID":"400 Water Ave","CMS_PROV_1":"01","CMS_PROV_2":"11","CMS_PROV_3":"Critical Access Hospitals","CMS_PROV_4":"Hillsboro","CMS_PROV_5":"521304","CMS_PROV_6":"54634-9054","CMS_PROV_7":"Hospital","FACILITY_N":"GUNDERSEN ST JOSEPHS HOSPITAL AND CLINICS","FAX_NUM":"608-489-8181","PHONE_NUM":"608-489-8000","CMS_PROV_8":"WI","TOT_BED_CT":25}},
{"type":"Feature","geometry":{"type":"Point","coordinates":[-90.81470309299999,43.94437458500005]},"properties":{"CERTIFIED_":25,"CMS_PROVID":"310 W Main St","CMS_PROV_1":"01","CMS_PROV_2":"11","CMS_PROV_3":"Critical Access Hospitals","CMS_PROV_4":"Sparta","CMS_PROV_5":"521305","CMS_PROV_6":"54656-2170","CMS_PROV_7":"Hospital","FACILITY_N":"MAYO CLINIC HEALTH SYSTEM IN SPARTA","FAX_NUM":"608-269-4562","PHONE_NUM":"608-269-2132","CMS_PROV_8":"WI","TOT_BED_CT":25}},
{"type":"Feature","geometry":{"type":"Point","coordinates":[-91.96347200899999,44.62049368100003]},"properties":{"CERTIFIED_":25,"CMS_PROVID":"1220 3rd Ave W","CMS_PROV_1":"01","CMS_PROV_2":"11","CMS_PROV_3":"Critical Access Hospitals","CMS_PROV_4":"Durand","CMS_PROV_5":"521307","CMS_PROV_6":"54736-1600","CMS_PROV_7":"Hospital","FACILITY_N":"ADVENTHEALTH DURAND","FAX_NUM":"","PHONE_NUM":"715-672-4211","CMS_PROV_8":"WI","TOT_BED_CT":25}},
{"type":"Feature","geometry":{"type":"Point","coordinates":[-92.36094185699994,45.29597206300008]},"properties":{"CERTIFIED_":25,"CMS_PROVID":"265 Griffin St E","CMS_PROV_1":"01","CMS_PROV_2":"11","CMS_PROV_3":"Critical Access Hospitals","CMS_PROV_4":"Amery","CMS_PROV_5":"521308","CMS_PROV_6":"54001-1439","CMS_PROV_7":"Hospital","FACILITY_N":"AMERY HOSPITAL & CLINIC","FAX_NUM":"715-268-0311","PHONE_NUM":"715-268-0300","CMS_PROV_8":"WI","TOT_BED_CT":25}},
{"type":"Feature","geometry":{"type":"Point","coordinates":[-89.82135243199997,43.97403604500005]},"properties":{"CERTIFIED_":25,"CMS_PROVID":"402 W Lake St","CMS_PROV_1":"01","CMS_PROV_2":"11","CMS_PROV_3":"Critical Access Hospitals","CMS_PROV_4":"Friendship","CMS_PROV_5":"521309","CMS_PROV_6":"53934-9699","CMS_PROV_7":"Hospital","FACILITY_N":"GUNDERSEN MOUNDVIEW HOSPITAL AND CLINICS","FAX_NUM":"608-339-9385","PHONE_NUM":"608-339-3331","CMS_PROV_8":"WI","TOT_BED_CT":25}},
{"type":"Feature","geometry":{"type":"Point","coordinates":[-88.12785821399996,44.866325681000035]},"properties":{"CERTIFIED_":15,"CMS_PROVID":"855 S Main St","CMS_PROV_1":"01","CMS_PROV_2":"11","CMS_PROV_3":"Critical Access Hospitals","CMS_PROV_4":"Oconto Falls","CMS_PROV_5":"521310","CMS_PROV_6":"54154-1241","CMS_PROV_7":"Hospital","FACILITY_N":"HSHS ST CLARE MEMORIAL HOSPITAL","FAX_NUM":"920-846-8101","PHONE_NUM":"920-846-3444","CMS_PROV_8":"WI","TOT_BED_CT":15}},
{"type":"Feature","geometry":{"type":"Point","coordinates":[-90.91861061299994,44.95266427100006]},"properties":{"CERTIFIED_":24,"CMS_PROVID":"1120 Pine St","CMS_PROV_1":"01","CMS_PROV_2":"11","CMS_PROV_3":"Critical Access Hospitals","CMS_PROV_4":"Stanley","CMS_PROV_5":"521311","CMS_PROV_6":"54768-1297","CMS_PROV_7":"Hospital","FACILITY_N":"ASPIRUS STANLEY HOSPITAL","FAX_NUM":"715-644-6221","PHONE_NUM":"715-644-5571","CMS_PROV_8":"WI","TOT_BED_CT":24}},
{"type":"Feature","geometry":{"type":"Point","coordinates":[-90.11039020999999,42.68400109000004]},"properties":{"CERTIFIED_":25,"CMS_PROVID":"800 Clay St","CMS_PROV_1":"01","CMS_PROV_2":"11","CMS_PROV_3":"Critical Access Hospitals","CMS_PROV_4":"Darlington","CMS_PROV_5":"521312","CMS_PROV_6":"53530-1228","CMS_PROV_7":"Hospital","FACILITY_N":"MEMORIAL HOSPITAL OF LAFAYETTE COUNTY","FAX_NUM":"","PHONE_NUM":"608-776-4466","CMS_PROV_8":"WI","TOT_BED_CT":25}},
{"type":"Feature","geometry":{"type":"Point","coordinates":[-89.73388299799996,45.486414016000026]},"properties":{"CERTIFIED_":18,"CMS_PROVID":"401 W Mohawk Dr STE 100","CMS_PROV_1":"01","CMS_PROV_2":"11","CMS_PROV_3":"Critical Access Hospitals","CMS_PROV_4":"Tomahawk","CMS_PROV_5":"521313","CMS_PROV_6":"54487-2273","CMS_PROV_7":"Hospital","FACILITY_N":"ASPIRUS TOMAHAWK HOSPITAL","FAX_NUM":"715-453-7762","PHONE_NUM":"715-453-7700","CMS_PROV_8":"WI","TOT_BED_CT":18}},
{"type":"Feature","geometry":{"type":"Point","coordinates":[-91.50059800199995,45.10176076800008]},"properties":{"CERTIFIED_":15,"CMS_PROVID":"1501 Thompson St","CMS_PROV_1":"01","CMS_PROV_2":"11","CMS_PROV_3":"Critical Access Hospitals","CMS_PROV_4":"Bloomer","CMS_PROV_5":"521314","CMS_PROV_6":"54724-1257","CMS_PROV_7":"Hospital","FACILITY_N":"MAYO CLINIC HEALTH SYSTEM-CHIPPEWA VALLEY","FAX_NUM":"715-568-6195","PHONE_NUM":"715-568-2000","CMS_PROV_8":"WI","TOT_BED_CT":15}},
{"type":"Feature","geometry":{"type":"Point","coordinates":[-91.83941347099994,45.397912602000076]},"properties":{"CERTIFIED_":25,"CMS_PROVID":"1222 E Woodland Ave","CMS_PROV_1":"01","CMS_PROV_2":"11","CMS_PROV_3":"Critical Access Hospitals","CMS_PROV_4":"Barron","CMS_PROV_5":"521315","CMS_PROV_6":"54812-1765","CMS_PROV_7":"Hospital","FACILITY_N":"MAYO CLINIC HEALTH SYSTEM-NORTHLAND","FAX_NUM":"715-537-6902","PHONE_NUM":"715-537-3186","CMS_PROV_8":"WI","TOT_BED_CT":29}},
{"type":"Feature","geometry":{"type":"Point","coordinates":[-91.31878572099998,44.364749870000026]},"properties":{"CERTIFIED_":25,"CMS_PROVID":"18601 Lincoln St","CMS_PROV_1":"01","CMS_PROV_2":"11","CMS_PROV_3":"Critical Access Hospitals","CMS_PROV_4":"Whitehall","CMS_PROV_5":"521316","CMS_PROV_6":"54773-8605","CMS_PROV_7":"Hospital","FACILITY_N":"GUNDERSEN TRI-COUNTY HOSPITAL AND CLINICS","FAX_NUM":"715-538-2271","PHONE_NUM":"715-538-4361","CMS_PROV_8":"WI","TOT_BED_CT":25}},
{"type":"Feature","geometry":{"type":"Point","coordinates":[-88.15437092799993,44.02554321800005]},"properties":{"CERTIFIED_":25,"CMS_PROVID":"614 Memorial Dr","CMS_PROV_1":"01","CMS_PROV_2":"11","CMS_PROV_3":"Critical Access Hospitals","CMS_PROV_4":"Chilton","CMS_PROV_5":"521317","CMS_PROV_6":"53014-1568","CMS_PROV_7":"Hospital","FACILITY_N":"ASCENSION CALUMET HOSPITAL","FAX_NUM":"920-849-7510","PHONE_NUM":"920-849-2386","CMS_PROV_8":"WI","TOT_BED_CT":29}},
{"type":"Feature","geometry":{"type":"Point","coordinates":[-92.70072828599996,45.30351489600008]},"properties":{"CERTIFIED_":23,"CMS_PROVID":"2600 65th Ave","CMS_PROV_1":"01","CMS_PROV_2":"11","CMS_PROV_3":"Critical Access Hospitals","CMS_PROV_4":"Osceola","CMS_PROV_5":"521318","CMS_PROV_6":"54020-4376","CMS_PROV_7":"Hospital","FACILITY_N":"LADD MEMORIAL HOSPITAL","FAX_NUM":"715-294-3694","PHONE_NUM":"715-294-2111","CMS_PROV_8":"WI","TOT_BED_CT":23}},
{"type":"Feature","geometry":{"type":"Point","coordinates":[-89.04309624299998,42.834781261000046]},"properties":{"CERTIFIED_":25,"CMS_PROVID":"11101 N Sherman Rd","CMS_PROV_1":"01","CMS_PROV_2":"11","CMS_PROV_3":"Critical Access Hospitals","CMS_PROV_4":"Edgerton","CMS_PROV_5":"521319","CMS_PROV_6":"53534-9002","CMS_PROV_7":"Hospital","FACILITY_N":"EDGERTON HOSPITAL AND HEALTH SERVICES","FAX_NUM":"608-561-6905","PHONE_NUM":"608-884-3441","CMS_PROV_8":"WI","TOT_BED_CT":29}},
{"type":"Feature","geometry":{"type":"Point","coordinates":[-90.51230129299995,43.957528516000025]},"properties":{"CERTIFIED_":15,"CMS_PROVID":"501 Gopher Dr","CMS_PROV_1":"01","CMS_PROV_2":"11","CMS_PROV_3":"Critical Access Hospitals","CMS_PROV_4":"Tomah","CMS_PROV_5":"521320","CMS_PROV_6":"54660-4513","CMS_PROV_7":"Hospital","FACILITY_N":"TOMAH MEMORIAL HOSPITAL","FAX_NUM":"608-377-8720","PHONE_NUM":"608-372-2181","CMS_PROV_8":"WI","TOT_BED_CT":15}},
{"type":"Feature","geometry":{"type":"Point","coordinates":[-88.81809746299996,43.83540033100007]},"properties":{"CERTIFIED_":18,"CMS_PROVID":"845 Parkside St","CMS_PROV_1":"01","CMS_PROV_2":"11","CMS_PROV_3":"Critical Access Hospitals","CMS_PROV_4":"Ripon","CMS_PROV_5":"521321","CMS_PROV_6":"54971-8505","CMS_PROV_7":"Hospital","FACILITY_N":"SSM HEALTH RIPON COMMUNITY HOSPITAL","FAX_NUM":"920-745-7926","PHONE_NUM":"920-748-3101","CMS_PROV_8":"WI","TOT_BED_CT":18}},
{"type":"Feature","geometry":{"type":"Point","coordinates":[-90.70835769699994,42.84377143900008]},"properties":{"CERTIFIED_":15,"CMS_PROVID":"507 S Monroe St","CMS_PROV_1":"01","CMS_PROV_2":"11","CMS_PROV_3":"Critical Access Hospitals","CMS_PROV_4":"Lancaster","CMS_PROV_5":"521322","CMS_PROV_6":"53813-2054","CMS_PROV_7":"Hospital","FACILITY_N":"GRANT REGIONAL HEALTH CENTER","FAX_NUM":"608-723-4464","PHONE_NUM":"608-723-2143","CMS_PROV_8":"WI","TOT_BED_CT":15}},
{"type":"Feature","geometry":{"type":"Point","coordinates":[-90.61864077299998,44.55259858000005]},"properties":{"CERTIFIED_":25,"CMS_PROVID":"N3708 River Ave","CMS_PROV_1":"01","CMS_PROV_2":"11","CMS_PROV_3":"Critical Access Hospitals","CMS_PROV_4":"Neillsville","CMS_PROV_5":"521323","CMS_PROV_6":"54456-7218","CMS_PROV_7":"Hospital","FACILITY_N":"MARSHFIELD MEDICAL CENTER - NEILLSVILLE","FAX_NUM":"715-819-8481","PHONE_NUM":"715-743-3101","CMS_PROV_8":"WI","TOT_BED_CT":25}},
{"type":"Feature","geometry":{"type":"Point","coordinates":[-90.35405892399996,45.13555186600007]},"properties":{"CERTIFIED_":15,"CMS_PROVID":"135 S Gibson St","CMS_PROV_1":"01","CMS_PROV_2":"11","CMS_PROV_3":"Critical Access Hospitals","CMS_PROV_4":"Medford","CMS_PROV_5":"521324","CMS_PROV_6":"54451-1622","CMS_PROV_7":"Hospital","FACILITY_N":"ASPIRUS MEDFORD HOSPITAL & CLINICS, INC","FAX_NUM":"715-748-8199","PHONE_NUM":"715-748-8100","CMS_PROV_8":"WI","TOT_BED_CT":15}},
{"type":"Feature","geometry":{"type":"Point","coordinates":[-90.44192557699995,45.93062345200008]},"properties":{"CERTIFIED_":15,"CMS_PROVID":"98 Sherry Ave","CMS_PROV_1":"01","CMS_PROV_2":"11","CMS_PROV_3":"Critical Access Hospitals","CMS_PROV_4":"Park Falls","CMS_PROV_5":"521325","CMS_PROV_6":"54552-1467","CMS_PROV_7":"Hospital","FACILITY_N":"MARSHFIELD MEDICAL CENTER - PARK FALLS","FAX_NUM":"715-762-7518","PHONE_NUM":"715-762-2484","CMS_PROV_8":"WI","TOT_BED_CT":15}},
{"type":"Feature","geometry":{"type":"Point","coordinates":[-88.73316740999996,44.381683285000065]},"properties":{"CERTIFIED_":15,"CMS_PROVID":"1405 Mill St","CMS_PROV_1":"01","CMS_PROV_2":"11","CMS_PROV_3":"Critical Access Hospitals","CMS_PROV_4":"New London","CMS_PROV_5":"521326","CMS_PROV_6":"54961-2155","CMS_PROV_7":"Hospital","FACILITY_N":"THEDACARE MEDICAL CENTER NEW LONDON","FAX_NUM":"920-531-2098","PHONE_NUM":"920-531-2000","CMS_PROV_8":"WI","TOT_BED_CT":15}},
{"type":"Feature","geometry":{"type":"Point","coordinates":[-88.74626698399999,43.630994378000025]},"properties":{"CERTIFIED_":15,"CMS_PROVID":"620 W Brown St","CMS_PROV_1":"01","CMS_PROV_2":"11","CMS_PROV_3":"Critical Access Hospitals","CMS_PROV_4":"Waupun","CMS_PROV_5":"521327","CMS_PROV_6":"53963-1702","CMS_PROV_7":"Hospital","FACILITY_N":"SSM HEALTH WAUPUN MEMORIAL HOSPITAL","FAX_NUM":"","PHONE_NUM":"920-324-6512","CMS_PROV_8":"WI","TOT_BED_CT":15}},
{"type":"Feature","geometry":{"type":"Point","coordinates":[-91.11589328899998,45.45607270000005]},"properties":{"CERTIFIED_":25,"CMS_PROVID":"1200 Port Arthur Rd","CMS_PROV_1":"01","CMS_PROV_2":"11","CMS_PROV_3":"Critical Access Hospitals","CMS_PROV_4":"Ladysmith","CMS_PROV_5":"521328","CMS_PROV_6":"54848-1137","CMS_PROV_7":"Hospital","FACILITY_N":"MARSHFIELD MEDICAL CENTER - LADYSMITH","FAX_NUM":"715-532-9809","PHONE_NUM":"715-532-5561","CMS_PROV_8":"WI","TOT_BED_CT":25}},
{"type":"Feature","geometry":{"type":"Point","coordinates":[-92.10402663399998,46.69756893400006]},"properties":{"CERTIFIED_":15,"CMS_PROVID":"3500 Tower Ave","CMS_PROV_1":"01","CMS_PROV_2":"11","CMS_PROV_3":"Critical Access Hospitals","CMS_PROV_4":"Superior","CMS_PROV_5":"521329","CMS_PROV_6":"54880-4491","CMS_PROV_7":"Hospital","FACILITY_N":"ESSENTIA HEALTH ST MARY'S HOSPITAL - SUPERIOR","FAX_NUM":"","PHONE_NUM":"715-817-7000","CMS_PROV_8":"WI","TOT_BED_CT":15}},
{"type":"Feature","geometry":{"type":"Point","coordinates":[-91.11414272899998,43.01935516900005]},"properties":{"CERTIFIED_":25,"CMS_PROVID":"37868 US Highway 18","CMS_PROV_1":"01","CMS_PROV_2":"11","CMS_PROV_3":"Critical Access Hospitals","CMS_PROV_4":"Prairie Du Chien","CMS_PROV_5":"521330","CMS_PROV_6":"53821-8416","CMS_PROV_7":"Hospital","FACILITY_N":"CROSSING RIVERS HEALTH MEDICAL CENTER","FAX_NUM":"608-357-2100","PHONE_NUM":"608-357-2000","CMS_PROV_8":"WI","TOT_BED_CT":25}},
{"type":"Feature","geometry":{"type":"Point","coordinates":[-92.68713409699996,45.77552941000005]},"properties":{"CERTIFIED_":25,"CMS_PROVID":"257 W Saint George Ave","CMS_PROV_1":"01","CMS_PROV_2":"11","CMS_PROV_3":"Critical Access Hospitals","CMS_PROV_4":"Grantsburg","CMS_PROV_5":"521331","CMS_PROV_6":"54840-7827","CMS_PROV_7":"Hospital","FACILITY_N":"BURNETT MEDICAL CENTER","FAX_NUM":"715-463-2423","PHONE_NUM":"715-463-5353","CMS_PROV_8":"WI","TOT_BED_CT":25}},
{"type":"Feature","geometry":{"type":"Point","coordinates":[-91.87255794699996,45.84256640400008]},"properties":{"CERTIFIED_":25,"CMS_PROVID":"1280 Chandler Dr","CMS_PROV_1":"01","CMS_PROV_2":"11","CMS_PROV_3":"Critical Access Hospitals","CMS_PROV_4":"Spooner","CMS_PROV_5":"521332","CMS_PROV_6":"54801-2202","CMS_PROV_7":"Hospital","FACILITY_N":"SPOONER HEALTH SYSTEM","FAX_NUM":"715-939-1555","PHONE_NUM":"715-635-2111","CMS_PROV_8":"WI","TOT_BED_CT":25}},
{"type":"Feature","geometry":{"type":"Point","coordinates":[-90.85517033499997,44.30240959100007]},"properties":{"CERTIFIED_":25,"CMS_PROVID":"711 W Adams St","CMS_PROV_1":"01","CMS_PROV_2":"11","CMS_PROV_3":"Critical Access Hospitals","CMS_PROV_4":"Black River Falls","CMS_PROV_5":"521333","CMS_PROV_6":"54615-5052","CMS_PROV_7":"Hospital","FACILITY_N":"BLACK RIVER MEMORIAL HOSPITAL","FAX_NUM":"715-284-1390","PHONE_NUM":"715-284-5361","CMS_PROV_8":"WI","TOT_BED_CT":25}},
{"type":"Feature","geometry":{"type":"Point","coordinates":[-89.07623803699994,44.34548171900008]},"properties":{"CERTIFIED_":25,"CMS_PROVID":"800 Riverside Dr","CMS_PROV_1":"01","CMS_PROV_2":"11","CMS_PROV_3":"Critical Access Hospitals","CMS_PROV_4":"Waupaca","CMS_PROV_5":"521334","CMS_PROV_6":"54981-1943","CMS_PROV_7":"Hospital","FACILITY_N":"THEDACARE MEDICAL CENTER - WAUPACA INC","FAX_NUM":"715-258-1009","PHONE_NUM":"715-258-1000","CMS_PROV_8":"WI","TOT_BED_CT":25}},
{"type":"Feature","geometry":{"type":"Point","coordinates":[-92.71931582699995,44.96144494300006]},"properties":{"CERTIFIED_":25,"CMS_PROVID":"405 Stageline Rd","CMS_PROV_1":"01","CMS_PROV_2":"11","CMS_PROV_3":"Critical Access Hospitals","CMS_PROV_4":"Hudson","CMS_PROV_5":"521335","CMS_PROV_6":"54016-7848","CMS_PROV_7":"Hospital","FACILITY_N":"HUDSON HOSPITAL & CLINIC","FAX_NUM":"715-531-6011","PHONE_NUM":"715-531-6000","CMS_PROV_8":"WI","TOT_BED_CT":25}},
{"type":"Feature","geometry":{"type":"Point","coordinates":[-91.47802624899998,46.02003155500006]},"properties":{"CERTIFIED_":25,"CMS_PROVID":"11040 N State Road 77","CMS_PROV_1":"01","CMS_PROV_2":"11","CMS_PROV_3":"Critical Access Hospitals","CMS_PROV_4":"Hayward","CMS_PROV_5":"521336","CMS_PROV_6":"54843","CMS_PROV_7":"Hospital","FACILITY_N":"TAMARACK HEALTH HAYWARD MEDICAL CENTER","FAX_NUM":"715-934-4270","PHONE_NUM":"715-934-4321","CMS_PROV_8":"WI","TOT_BED_CT":25}},
{"type":"Feature","geometry":{"type":"Point","coordinates":[-92.64268251699997,45.409302351000065]},"properties":{"CERTIFIED_":25,"CMS_PROVID":"235 E State St","CMS_PROV_1":"01","CMS_PROV_2":"11","CMS_PROV_3":"Critical Access Hospitals","CMS_PROV_4":"Saint Croix Falls","CMS_PROV_5":"521337","CMS_PROV_6":"54024-4117","CMS_PROV_7":"Hospital","FACILITY_N":"ST CROIX REGIONAL MEDICAL CENTER","FAX_NUM":"715-483-0295","PHONE_NUM":"715-483-0247","CMS_PROV_8":"WI","TOT_BED_CT":25}},
{"type":"Feature","geometry":{"type":"Point","coordinates":[-89.03612400799994,43.323791508000056]},"properties":{"CERTIFIED_":25,"CMS_PROVID":"1515 Park Ave","CMS_PROV_1":"01","CMS_PROV_2":"11","CMS_PROV_3":"Critical Access Hospitals","CMS_PROV_4":"Columbus","CMS_PROV_5":"521338","CMS_PROV_6":"53925-1618","CMS_PROV_7":"Hospital","FACILITY_N":"PRAIRIE RIDGE HEALTH","FAX_NUM":"920-623-3546","PHONE_NUM":"920-623-2200","CMS_PROV_8":"WI","TOT_BED_CT":25}},
{"type":"Feature","geometry":{"type":"Point","coordinates":[-89.68294474699996,45.176004146000025]},"properties":{"CERTIFIED_":25,"CMS_PROVID":"601 S Center Ave","CMS_PROV_1":"01","CMS_PROV_2":"11","CMS_PROV_3":"Critical Access Hospitals","CMS_PROV_4":"Merrill","CMS_PROV_5":"521339","CMS_PROV_6":"54452-3404","CMS_PROV_7":"Hospital","FACILITY_N":"ASPIRUS MERRILL HOSPITAL","FAX_NUM":"715-539-2107","PHONE_NUM":"715-536-5511","CMS_PROV_8":"WI","TOT_BED_CT":25}},
{"type":"Feature","geometry":{"type":"Point","coordinates":[-91.89999937599998,44.88272072500007]},"properties":{"CERTIFIED_":25,"CMS_PROVID":"2321 Stout Rd","CMS_PROV_1":"01","CMS_PROV_2":"11","CMS_PROV_3":"Critical Access Hospitals","CMS_PROV_4":"Menomonie","CMS_PROV_5":"521340","CMS_PROV_6":"54751-7003","CMS_PROV_7":"Hospital","FACILITY_N":"MAYO CLINIC HEALTH SYSTEM-RED CEDAR","FAX_NUM":"715-233-7534","PHONE_NUM":"715-235-7534","CMS_PROV_8":"WI","TOT_BED_CT":25}},
{"type":"Feature","geometry":{"type":"Point","coordinates":[-90.38280222999998,43.33910377900003]},"properties":{"CERTIFIED_":25,"CMS_PROVID":"333 E 2nd St","CMS_PROV_1":"01","CMS_PROV_2":"11","CMS_PROV_3":"Critical Access Hospitals","CMS_PROV_4":"Richland Center","CMS_PROV_5":"521341","CMS_PROV_6":"53581-1914","CMS_PROV_7":"Hospital","FACILITY_N":"RICHLAND HOSPITAL","FAX_NUM":"608-647-6235","PHONE_NUM":"608-647-6321","CMS_PROV_8":"WI","TOT_BED_CT":25}},
{"type":"Feature","geometry":{"type":"Point","coordinates":[-91.92648535199999,45.742126520000056]},"properties":{"CERTIFIED_":25,"CMS_PROVID":"113 4th Ave","CMS_PROV_1":"01","CMS_PROV_2":"11","CMS_PROV_3":"Critical Access Hospitals","CMS_PROV_4":"Shell Lake","CMS_PROV_5":"521342","CMS_PROV_6":"54871-4457","CMS_PROV_7":"Hospital","FACILITY_N":"INDIANHEAD MEDICAL CENTER SHELL LAKE","FAX_NUM":"715-468-7303","PHONE_NUM":"715-468-7833","CMS_PROV_8":"WI","TOT_BED_CT":25}},
{"type":"Feature","geometry":{"type":"Point","coordinates":[-89.21126890399995,42.92027482900005]},"properties":{"CERTIFIED_":25,"CMS_PROVID":"900 Ridge St","CMS_PROV_1":"01","CMS_PROV_2":"11","CMS_PROV_3":"Critical Access Hospitals","CMS_PROV_4":"Stoughton","CMS_PROV_5":"521343","CMS_PROV_6":"53589-1864","CMS_PROV_7":"Hospital","FACILITY_N":"STOUGHTON HOSPITAL","FAX_NUM":"608-873-2315","PHONE_NUM":"608-873-6611","CMS_PROV_8":"WI","TOT_BED_CT":25}},
{"type":"Feature","geometry":{"type":"Point","coordinates":[-90.70829617399994,43.13295250400006]},"properties":{"CERTIFIED_":25,"CMS_PROVID":"205 Parker St","CMS_PROV_1":"01","CMS_PROV_2":"11","CMS_PROV_3":"Critical Access Hospitals","CMS_PROV_4":"Boscobel","CMS_PROV_5":"521344","CMS_PROV_6":"53805-1642","CMS_PROV_7":"Hospital","FACILITY_N":"GUNDERSEN BOSCOBEL AREA HOSPITAL AND CLINICS","FAX_NUM":"608-375-6208","PHONE_NUM":"608-375-6115","CMS_PROV_8":"WI","TOT_BED_CT":25}},
{"type":"Feature","geometry":{"type":"Point","coordinates":[-92.55323889299996,45.11778591900003]},"properties":{"CERTIFIED_":25,"CMS_PROVID":"535 Hospital Rd","CMS_PROV_1":"01","CMS_PROV_2":"11","CMS_PROV_3":"Critical Access Hospitals","CMS_PROV_4":"New Richmond","CMS_PROV_5":"521345","CMS_PROV_6":"54017-1449","CMS_PROV_7":"Hospital","FACILITY_N":"WESTFIELDS HOSPITAL AND CLINIC","FAX_NUM":"715-243-2851","PHONE_NUM":"715-243-2600","CMS_PROV_8":"WI","TOT_BED_CT":25}},
{"type":"Feature","geometry":{"type":"Point","coordinates":[-88.60704667299996,44.761590322000075]},"properties":{"CERTIFIED_":25,"CMS_PROVID":"100 County Road B","CMS_PROV_1":"01","CMS_PROV_2":"11","CMS_PROV_3":"Critical Access Hospitals","CMS_PROV_4":"Shawano","CMS_PROV_5":"521346","CMS_PROV_6":"54166-7072","CMS_PROV_7":"Hospital","FACILITY_N":"THEDACARE MEDICAL CENTER - SHAWANO INC","FAX_NUM":"715-526-7205","PHONE_NUM":"715-526-2111","CMS_PROV_8":"WI","TOT_BED_CT":25}},
{"type":"Feature","geometry":{"type":"Point","coordinates":[-92.37739888599998,44.94150095800006]},"properties":{"CERTIFIED_":25,"CMS_PROVID":"1100 Bergslien St","CMS_PROV_1":"01","CMS_PROV_2":"11","CMS_PROV_3":"Critical Access Hospitals","CMS_PROV_4":"Baldwin","CMS_PROV_5":"521347","CMS_PROV_6":"54002-2600","CMS_PROV_7":"Hospital","FACILITY_N":"WESTERN WISCONSIN HEALTH","FAX_NUM":"715-684-1119","PHONE_NUM":"715-684-1111","CMS_PROV_8":"WI","TOT_BED_CT":25}},
{"type":"Feature","geometry":{"type":"Point","coordinates":[-90.88891721799996,43.55145472700008]},"properties":{"CERTIFIED_":25,"CMS_PROVID":"507 S Main St","CMS_PROV_1":"01","CMS_PROV_2":"11","CMS_PROV_3":"Critical Access Hospitals","CMS_PROV_4":"Viroqua","CMS_PROV_5":"521348","CMS_PROV_6":"54665-2059","CMS_PROV_7":"Hospital","FACILITY_N":"VERNON MEMORIAL HOSPITAL","FAX_NUM":"608-637-2141","PHONE_NUM":"608-637-2101","CMS_PROV_8":"WI","TOT_BED_CT":25}},
{"type":"Feature","geometry":{"type":"Point","coordinates":[-92.60230563199997,44.86307916000004]},"properties":{"CERTIFIED_":25,"CMS_PROVID":"1629 E Division St","CMS_PROV_1":"01","CMS_PROV_2":"11","CMS_PROV_3":"Critical Access Hospitals","CMS_PROV_4":"River Falls","CMS_PROV_5":"521349","CMS_PROV_6":"54022-1571","CMS_PROV_7":"Hospital","FACILITY_N":"RIVER FALLS AREA HOSPITAL","FAX_NUM":"715-307-6005","PHONE_NUM":"715-307-6000","CMS_PROV_8":"WI","TOT_BED_CT":25}},
{"type":"Feature","geometry":{"type":"Point","coordinates":[-89.13935318099999,45.14039882700007]},"properties":{"CERTIFIED_":25,"CMS_PROVID":"112 E 5th Ave","CMS_PROV_1":"01","CMS_PROV_2":"11","CMS_PROV_3":"Critical Access Hospitals","CMS_PROV_4":"Antigo","CMS_PROV_5":"521350","CMS_PROV_6":"54409-2710","CMS_PROV_7":"Hospital","FACILITY_N":"ASPIRUS LANGLADE HOSPITAL","FAX_NUM":"715-623-9440","PHONE_NUM":"715-623-2331","CMS_PROV_8":"WI","TOT_BED_CT":25}},
{"type":"Feature","geometry":{"type":"Point","coordinates":[-89.99451618199998,43.549608446000036]},"properties":{"CERTIFIED_":25,"CMS_PROVID":"2000 N Dewey Ave","CMS_PROV_1":"01","CMS_PROV_2":"11","CMS_PROV_3":"Critical Access Hospitals","CMS_PROV_4":"Reedsburg","CMS_PROV_5":"521351","CMS_PROV_6":"53959-1049","CMS_PROV_7":"Hospital","FACILITY_N":"REEDSBURG AREA MEDICAL CENTER","FAX_NUM":"608-524-6887","PHONE_NUM":"608-524-6487","CMS_PROV_8":"WI","TOT_BED_CT":25}},
{"type":"Feature","geometry":{"type":"Point","coordinates":[-90.12997930399996,42.95123510700006]},"properties":{"CERTIFIED_":25,"CMS_PROVID":"800 Compassion Way","CMS_PROV_1":"01","CMS_PROV_2":"11","CMS_PROV_3":"Critical Access Hospitals","CMS_PROV_4":"Dodgeville","CMS_PROV_5":"521352","CMS_PROV_6":"53533-1956","CMS_PROV_7":"Hospital","FACILITY_N":"UPLAND HILLS HEALTH","FAX_NUM":"608-930-7250","PHONE_NUM":"608-930-8000","CMS_PROV_8":"WI","TOT_BED_CT":25}},
{"type":"Feature","geometry":{"type":"Point","coordinates":[-92.02883449999996,45.545863600000075]},"properties":{"CERTIFIED_":25,"CMS_PROVID":"1705 16th Ave","CMS_PROV_1":"01","CMS_PROV_2":"11","CMS_PROV_3":"Critical Access Hospitals","CMS_PROV_4":"Cumberland","CMS_PROV_5":"521353","CMS_PROV_6":"54829","CMS_PROV_7":"Hospital","FACILITY_N":"CUMBERLAND MEMORIAL HOSPITAL","FAX_NUM":"715-822-7252","PHONE_NUM":"715-822-7200","CMS_PROV_8":"WI","TOT_BED_CT":25}},
{"type":"Feature","geometry":{"type":"Point","coordinates":[-90.45580936199997,42.71969001900004]},"properties":{"CERTIFIED_":25,"CMS_PROVID":"1400 Eastside Rd","CMS_PROV_1":"01","CMS_PROV_2":"11","CMS_PROV_3":"Critical Access Hospitals","CMS_PROV_4":"Platteville","CMS_PROV_5":"521354","CMS_PROV_6":"53818-9800","CMS_PROV_7":"Hospital","FACILITY_N":"SOUTHWEST HEALTH CENTER","FAX_NUM":"","PHONE_NUM":"608-348-2331","CMS_PROV_8":"WI","TOT_BED_CT":25}},
{"type":"Feature","geometry":{"type":"Point","coordinates":[-88.94141856099998,43.97764093400008]},"properties":{"CERTIFIED_":25,"CMS_PROVID":"225 Memorial Dr","CMS_PROV_1":"01","CMS_PROV_2":"11","CMS_PROV_3":"Critical Access Hospitals","CMS_PROV_4":"Berlin","CMS_PROV_5":"521355","CMS_PROV_6":"54923-1243","CMS_PROV_7":"Hospital","FACILITY_N":"THEDACARE MEDICAL CENTER - BERLIN INC","FAX_NUM":"920-361-5579","PHONE_NUM":"920-361-1313","CMS_PROV_8":"WI","TOT_BED_CT":25}},
{"type":"Feature","geometry":{"type":"Point","coordinates":[-87.86714339099996,44.89621307500005]},"properties":{"CERTIFIED_":4,"CMS_PROVID":"820 Arbutus Ave","CMS_PROV_1":"01","CMS_PROV_2":"11","CMS_PROV_3":"Critical Access Hospitals","CMS_PROV_4":"Oconto","CMS_PROV_5":"521356","CMS_PROV_6":"54153-2004","CMS_PROV_7":"Hospital","FACILITY_N":"BELLIN HEALTH OCONTO HOSPITAL","FAX_NUM":"920-516-7088","PHONE_NUM":"920-835-1101","CMS_PROV_8":"WI","TOT_BED_CT":4}},
{"type":"Feature","geometry":{"type":"Point","coordinates":[-88.54072419399995,42.59824072600003]},"properties":{"CERTIFIED_":25,"CMS_PROVID":"N2950 State Road 67","CMS_PROV_1":"01","CMS_PROV_2":"11","CMS_PROV_3":"Critical Access Hospitals","CMS_PROV_4":"Lake Geneva","CMS_PROV_5":"521357","CMS_PROV_6":"53147-2655","CMS_PROV_7":"Hospital","FACILITY_N":"MERCY WALWORTH HOSPITAL & MEDICAL CENTER","FAX_NUM":"262-245-2198","PHONE_NUM":"262-245-0535","CMS_PROV_8":"WI","TOT_BED_CT":25}},
{"type":"Feature","geometry":{"type":"Point","coordinates":[-87.35144545699995,44.83278675200006]},"properties":{"CERTIFIED_":25,"CMS_PROVID":"323 S 18th Ave","CMS_PROV_1":"01","CMS_PROV_2":"11","CMS_PROV_3":"Critical Access Hospitals","CMS_PROV_4":"Sturgeon Bay","CMS_PROV_5":"521358","CMS_PROV_6":"54235-1401","CMS_PROV_7":"Hospital","FACILITY_N":"DOOR COUNTY MEDICAL CENTER","FAX_NUM":"920-743-8165","PHONE_NUM":"920-743-5566","CMS_PROV_8":"WI","TOT_BED_CT":25}},
{"type":"Feature","geometry":{"type":"Point","coordinates":[-90.88867749599996,46.56692771100006]},"properties":{"CERTIFIED_":25,"CMS_PROVID":"1615 Maple Ln","CMS_PROV_1":"01","CMS_PROV_2":"11","CMS_PROV_3":"Critical Access Hospitals","CMS_PROV_4":"Ashland","CMS_PROV_5":"521359","CMS_PROV_6":"54806-3626","CMS_PROV_7":"Hospital","FACILITY_N":"TAMARACK HEALTH ASHLAND MEDICAL CENTER","FAX_NUM":"715-682-4022","PHONE_NUM":"715-685-5500","CMS_PROV_8":"WI","TOT_BED_CT":25}}
]}